takeoff_name,club,takeoff_lat,takeoff_lon,telegram_group_name
100 House,Joint Services,52.16338,-3.33262,Joint Services
Aberedw,Joint Services,52.164615,-3.3347,Joint Services
Aberfoyle,SMPC,56.18777,-4.40283,SMPC
Abernant,SW Wales,51.760149999999996,-3.89551,SW Wales
Abernethy,LLSC,56.32487,-3.32118,LLSC
Abington,LLSC,55.50938,-3.67677,LLSC
Achnasheen,Highland,57.543075,-5.13001,Highland
Afton,Isle of Wight,50.67099,-1.4799099999999998,Isle of Wight
Airways,Derbyshire,52.972635,-1.7490350000000001,Derbyshire
Alcock Tarn,Cumbria,54.46255,-3.00033,Cumbria
Alva,LLSC,56.161185,-3.8059,LLSC
Alvie,Highland,57.160375,-3.92057,Highland
An Liathanach,Highland,57.56736,-5.099634999999999,Highland
An Soutar,Highland,57.36645,-4.89483,Highland
An Teallach,Highland,57.79052,-5.2443,Highland
Aonach Mor,SMPC,56.842214999999996,-4.97029,SMPC
Arenig Fawr,Snowdonia,52.917230000000004,-3.7519,Snowdonia
Arreton,Isle of Wight,50.681125,-1.2273999999999998,Isle of Wight
"B""Dragons Tail (Y Crib)""",SE Wales,51.972375,-3.1702,SE Wales
"B""Gordies Pike""",Cumbria,54.516774999999996,-3.22876,Cumbria
"B""Gummers How""",Cumbria,54.28817,-2.93962,Cumbria
"B""Lord Herefords Knob""",Joint Services,52.00996,-3.1225500000000004,Joint Services
"B""Meall Amhadaidh""",SMPC,56.395415,-4.276400000000001,SMPC
"B""Suidh A Mhinn""",Highland,57.63479,-6.35319,Highland
"B""Tap Onoth""",Aberdeen,57.3503,-2.85748,Aberdeen
Bache,Mid Wales,52.2653,-3.142735,Mid Wales
Backbarrow,Cumbria,54.44115,-3.343665,Cumbria
Balladen,Pennine,53.68761,-2.27285,Pennine
Ballard Down,Wessex,50.63087,-1.94635,Wessex
Balquhidder,SMPC,56.36606,-4.34925,SMPC
Balquhider,SMPC,56.358235,-4.425140000000001,SMPC
Bank Hill,LLSC,56.172830000000005,-3.686185,LLSC
Barf,Cumbria,54.62967,-3.2179,Cumbria
Barkin,Dales,54.276305,-2.498085,Dales
Barton Fell,Cumbria,54.58517,-2.82593,Cumbria
Barton On Sea,Isle of Wight,50.735240000000005,-1.65853,Isle of Wight
Batcombe,Wessex,50.84403,-2.51013,Wessex
Beardown,South Devon,50.57238,-3.96795,South Devon
Beeftub,LLSC,55.40067,-3.49012,LLSC
Beer Head,Condors,50.68713,-3.10112,Condors
Beinn A'chait,Highland,56.84425,-3.862515,Highland
Beinn A Chaorainn,SMPC,56.918,-4.65657,SMPC
Beinn A Muice,Highland,57.41789,-4.951625,Highland
Beinn Dorain,SMPC,56.51697,-4.72987,SMPC
Beinn Eighe,Highland,57.58387,-5.38462,Highland
Beinn Leabhainn,SMPC,56.42644,-4.32405,SMPC
Beinn Lutharn Bheag,Highland,56.89547,-3.53437,Highland
Beinn Na Feusaige,Highland,57.53746,-5.18294,Highland
Beinn Narnain,SMPC,56.218045000000004,-4.78079,SMPC
Bell Hill,Wessex,50.8761,-2.28855,Wessex
Belstone,South Devon,50.69908,-3.96592,South Devon
Ben Gulabin,Highland,56.8306,-3.4723,Highland
Ben Hiel,Highland,58.416055,-4.3980250000000005,Highland
Ben Lawers,SMPC,56.5277,-4.24297,SMPC
Ben Ledi,SMPC,56.25059,-4.30922,SMPC
Ben Luibhean,SMPC,56.22953,-4.84298,SMPC
Ben More,SMPC,56.385595,-4.5425249999999995,SMPC
Ben Nevis,SMPC,56.79638,-5.00398,SMPC
Ben Reid,Aberdeen,56.860225,-3.118025,Aberdeen
Ben Rinnes,Aberdeen,57.403135000000006,-3.239035,Aberdeen
Ben Tirran,Aberdeen,56.84645,-3.03435,Aberdeen
Ben Toaig,SMPC,56.559805,-4.8357399999999995,SMPC
Ben Uarie,Highland,58.12663,-3.81967,Highland
Ben Vorlich,SMPC,56.366585,-4.245115,SMPC
Ben Wyvis,Highland,57.682625,-4.5545100000000005,Highland
Bewaldeth,Cumbria,54.714535,-3.2243899999999996,Cumbria
Bin Of Cullen,Aberdeen,57.66573,-2.87393,Aberdeen
Birks Hill,LLSC,55.58999,-3.13455,LLSC
Bishop,LLSC,56.21678,-3.31957,LLSC
Black Combe,Cumbria,54.26295,-3.35297,Cumbria
Black Combe East,Cumbria,54.253164999999996,-3.317135,Cumbria
"Black Craig, Ayrshire",LLSC,55.22767,-4.35264,LLSC
Black Hill,SE Wales,52.00213,-3.05463,SE Wales
Black Mount,SMPC,56.586475,-4.7333099999999995,SMPC
Blackers Hole,Wessex,50.59345,-1.9853,Wessex
Blackmount,SMPC,56.58578,-4.76467,SMPC
Blaenavon (Gb),SE Wales,51.78122,-3.13877,SE Wales
Blease Fell,Cumbria,54.62548,-3.0736499999999998,Cumbria
Blencathra,Cumbria,54.6401,-3.05068,Cumbria
Blorenge,SE Wales,51.80443,-3.0512,SE Wales
Blua Crags,Dales,54.069315,-2.2617599999999998,Dales
Bo Peep,Southern,50.820660000000004,0.1285,Southern
Bodesbeck Law,LLSC,55.37974,-3.3149249999999997,LLSC
Bow Scale Tarn,Cumbria,54.67045,-3.0308,Cumbria
Bowfell,Cumbria,54.4572,-3.1781,Cumbria
Bradwell,Derbyshire,53.321,-1.73005,Derbyshire
Braemore Junction,Highland,57.76404,-4.99636,Highland
Brant Side,Dales,54.2758,-2.3437,Dales
Bratton,Gap,51.26413,-2.14507,Gap
Bridlington,Cayley,54.0955,-0.17363,Cayley
Brighstone,Isle of Wight,50.65169,-1.38317,Isle of Wight
Brigsteer,Dales,54.29617,-2.79064,Dales
Broadlee Bank,Derbyshire,53.37,-1.83582,Derbyshire
Broughton Heights,LLSC,55.66144,-3.40388,LLSC
Brownber Hill,Northumbria,54.648575,-2.45711,Northumbria
Bruthac Nan Uamh,Highland,57.1652,-4.9924599999999995,Highland
Bryn Banog,Snowdonia,52.98795,-4.12414,Snowdonia
Bryncaws,SW Wales,51.712360000000004,-3.78954,SW Wales
Buck Of Cabrach,Aberdeen,57.29813,-2.97968,Aberdeen
Builth Wells,Joint Services,52.16302,-3.34222,Joint Services
Bunster,Derbyshire,53.06035,-1.791695,Derbyshire
Burger Van,SMPC,56.430315,-4.324195,SMPC
Burn Fell,Pennine,53.97338,-2.49325,Pennine
Burnbank,Cumbria,54.57997,-3.3720100000000004,Cumbria
Burney,Cumbria,54.26124,-3.13794,Cumbria
Butser West,Sky Surfing,50.97682,-0.98785,Sky Surfing
Buttermere Moss,Cumbria,54.542225,-3.257675,Cumbria
Cacra,LLSC,55.4435,-3.07375,LLSC
Cairn An Righ,Highland,56.874790000000004,-3.610235,Highland
Cairn O Mount,Aberdeen,56.914,-2.575745,Aberdeen
Cairn Vaich,Aberdeen,57.179775,-3.2662050000000002,Aberdeen
Cairngorm,Highland,57.11905,-3.64523,Highland
Cairnwell,Aberdeen,56.87667,-3.42092,Aberdeen
Camlo,Mid Wales,52.32208,-3.42097,Mid Wales
Campsie Fells,LLSC,55.992965,-4.218045,LLSC
Captain Cooks,North Yorks,54.48282,-1.09143,North Yorks
Cardon Hill,LLSC,55.57002,-3.48178,LLSC
Carlton Bank,North Yorks,54.4155,-1.20225,North Yorks
Carn Ban,Highland,57.42762,-4.78808,Highland
Carn Brea,Kernow,50.221315000000004,-5.2496,Kernow
Carn Dubh,Highland,57.00037,-4.44227,Highland
Carn Ghluasaid,Highland,57.156040000000004,-5.075125,Highland
Carn Liath,Highland,56.80353,-3.74793,Highland
Carn Moine,Aberdeen,57.0533,-3.27857,Aberdeen
Carn Na Caim,Highland,56.9202,-4.1830750000000005,Highland
Carn Nam Feuaich,Highland,57.166375,-5.017715,Highland
Carrock Fell,Cumbria,54.69762,-3.015975,Cumbria
Catacol,SMPC,55.69668,-5.31787,SMPC
Catbells,Cumbria,54.57328,-3.16953,Cumbria
Cats Tor,Derbyshire,53.28013,-2.00997,Derbyshire
Cautley,Dales,54.37131,-2.481585,Dales
Chalton,Sky Surfing,50.929514999999995,-0.954245,Sky Surfing
Charmouth,Condors,50.733045,-2.89324,Condors
Cherhill,Gap,51.42457,-1.93176,Gap
Chillerton,Isle of Wight,50.647735,-1.32695,Isle of Wight
Chinkwell Tor,South Devon,50.588645,-3.797265,South Devon
Chinnor,Dunstable,51.69957,-0.89113,Dunstable
Choinneachain Hill,SMPC,56.42272,-3.91312,SMPC
Clatter,Mid Wales,52.557375,-3.469925,Mid Wales
Clough Head,Cumbria,54.5974,-3.04325,Cumbria
Cock Up,Cumbria,54.673275000000004,-3.1500000000000004,Cumbria
Cocking Tor,Derbyshire,53.1431,-1.4824600000000001,Derbyshire
Codden Hill,North Devon,51.04903,-4.0232399999999995,North Devon
Cogden,Condors,50.694735,-2.717035,Condors
Coiliochbhar,Aberdeen,57.23063,-2.81837,Aberdeen
Coire Nan Cisteachan,Highland,56.89856,-4.205220000000001,Highland
Combe Gibbet,Thames Valley,51.35858,-1.480475,Thames Valley
Compton Reds,Isle of Wight,50.662695,-1.473465,Isle of Wight
Coniston Old Man,Cumbria,54.36845,-3.11632,Cumbria
Coombe,Thames Valley,51.35865,-1.4792200000000002,Thames Valley
Corn Ridge,South Devon,50.68646,-4.049189999999999,South Devon
Corndon,Long Mynd,52.56568,-3.02,Long Mynd
Corney Fell,Cumbria,54.32188,-3.32382,Cumbria
Corton Denham,Wessex,51.007525,-2.524,Wessex
Cotterside,Dales,54.3376,-2.29659,Dales
Cow Close Fell,Dales,54.15457000000001,-2.17244,Dales
Cowden,Cayley,53.863075,-0.12186,Cayley
Cowdown,Condors,50.797005,-2.51357,Condors
Cowlod,Mid Wales,52.26499,-3.23585,Mid Wales
Crag Hill,Cumbria,54.571785000000006,-3.24955,Cumbria
Cragdale Moor,Dales,54.24274,-2.1496649999999997,Dales
Craig Hulich,SMPC,56.518175,-3.799075,SMPC
Craigellachie,Highland,57.189015,-3.85102,Highland
Craiglich,Aberdeen,57.136735,-2.77367,Aberdeen
Creag An Earbaill,Highland,57.29197,-5.55068,Highland
Creag Dhubh,Highland,57.10048,-4.10193,Highland
Creag Ghleannain,Highland,57.178349999999995,-3.889825,Highland
Creag Meagaidh,Highland,56.95488,-4.533125,Highland
Creag Meageaidh,Highland,56.9712,-4.51507,Highland
Creag Mhigeachaidh,Highland,57.099135000000004,-3.865565,Highland
Creag Na Caillich,SMPC,56.494375000000005,-4.346695,SMPC
Creag Nan Gabhar,Aberdeen,56.93675,-3.40203,Aberdeen
Creag Ruadh,Highland,57.5474,-4.86833,Highland
Creagan Gorm,Highland,57.187535,-3.695015,Highland
Cringle,North Yorks,54.42112,-1.17202,North Yorks
Cross Fell,Northumbria,54.70137,-2.52788,Northumbria
Curbar,Derbyshire,53.2694,-1.61147,Derbyshire
Cwmafan,SW Wales,51.62673,-3.76633,SW Wales
Cwmbran,SE Wales,51.67538,-3.05492,SE Wales
Cyrniau,North Wales,52.81572,-3.40228,North Wales
Dale Head,Cumbria,54.52678,-3.20282,Cumbria
Dalefoot,Dales,54.43709,-2.33715,Dales
Dalwhinnie,Highland,56.8977,-4.20859,Highland
Deepdale,Dales,54.23792,-2.4133,Dales
Devils Dyke,Southern,50.88575,-0.21312,Southern
Devonshaw Hill,LLSC,55.541055,-3.649395,LLSC
Didling Hill,Sky Surfing,50.953315,-0.821375,Sky Surfing
Ditchling,Southern,50.901035,-0.103435,Southern
Dodd Fell,Dales,54.24897,-2.26377,Dales
Dollar,LLSC,56.17331,-3.68507,LLSC
Drumochter,Highland,56.8679,-4.21493,Highland
Dumyat,LLSC,56.1543,-3.88057,LLSC
Dungavel,LLSC,55.55825,-3.68532,LLSC
Dungiven,Ulster,54.934650000000005,-6.863905,Ulster
Dunstable,Dunstable,51.869975,-0.53799,Dunstable
East Hill,North Wales,53.081195,-2.603665,North Wales
East Lomond,LLSC,56.2422,-3.221405,LLSC
Ebbw Vale,SE Wales,51.7524,-3.20664,SE Wales
Ecton,Derbyshire,53.11943,-1.8514,Derbyshire
Edenfield,Pennine,53.65658,-2.27196,Pennine
Edge Top,Derbyshire,53.18847,-1.9191,Derbyshire
Elan Valley,Mid Wales,52.33142,-3.60265,Mid Wales
Elidir Fach,Snowdonia,53.13093,-4.09171,Snowdonia
Ellerside,Cumbria,54.21653,-2.99003,Cumbria
Ennerdale,Cumbria,54.52008,-3.3957,Cumbria
Eyam,Derbyshire,53.29617,-1.69618,Derbyshire
Eype,Condors,50.71583,-2.77895,Condors
Fairsnape,Pennine,53.91135,-2.617225,Pennine
Fan Brycheiniog,SW Wales,51.879909999999995,-3.70435,SW Wales
Fan Frynych,SW Wales,51.89755,-3.5105950000000004,SW Wales
Fan Gyhirych,SW Wales,51.85895,-3.6279500000000002,SW Wales
Farleton,Dales,54.21823,-2.70955,Dales
Fast Heugh,LLSC,55.54987,-2.95538,LLSC
Feshiebridge,Highland,57.09047,-3.84713,Highland
Ffarmers,SW Wales,52.1126,-3.97267,SW Wales
Fforest Farm,Joint Services,52.16525,-3.33028,Joint Services
Firle,Southern,50.83497,0.081015,Southern
Fochriw,SW Wales,51.73535,-3.3064150000000003,SW Wales
Foel Fadian,Mid Wales,52.543825,-3.730015,Mid Wales
Foreman Hill,Aberdeen,57.500895,-2.7167950000000003,Aberdeen
Freathy,South Devon,50.344935,-4.24835,South Devon
Fremington,Dales,54.39755,-1.9292500000000001,Dales
Friar Waddon,Condors,50.66747,-2.50895,Condors
Frocester,Avon,51.70922,-2.29993,Avon
Fuar Mhonadh,SMPC,56.85597,-4.21438,SMPC
Gallt Yr Ogof,Snowdonia,53.10545,-3.95147,Snowdonia
Gam Rhiw,Mid Wales,52.24465,-3.52982,Mid Wales
Gargunnock,LLSC,56.11127,-4.08335,LLSC
Gargunnock Hills,LLSC,56.09398,-4.16061,LLSC
Garret,Snowdonia,53.130375,-4.099690000000001,Snowdonia
Garway,SE Wales,51.920355,-2.822335,SE Wales
Glen Clova,Aberdeen,56.823025,-3.0275499999999997,Aberdeen
Glen Ogle,SMPC,56.42518,-4.32393,SMPC
Glencoe,SMPC,56.62842,-4.84147,SMPC
Glenfinna,SMPC,56.88111,-5.450175,SMPC
Glyder,Snowdonia,53.092355,-3.997325,Snowdonia
Golden Ball,Thames Valley,51.37275,-1.8203900000000002,Thames Valley
Gorllwyn,Snowdonia,52.95441,-4.13307,Snowdonia
Gragareth,Dales,54.20421,-2.4784100000000002,Dales
Graig Fawr,SW Wales,51.75305,-3.99029,SW Wales
Great Coum,Dales,54.24703,-2.45715,Dales
Great Whernside,Dales,54.17188,-2.00633,Dales
Green How,Cumbria,54.44812,-3.246415,Cumbria
Greenhill,LLSC,55.58776,-3.700225,LLSC
Grey Mares Tail,LLSC,55.41957,-3.32182,LLSC
Grey Scars,Dales,54.141255,-2.41602,Dales
Gyrn Moelfre,North Wales,52.85125,-3.20795,North Wales
Haig,Cumbria,54.549675,-3.5993649999999997,Cumbria
Hambledon,Wessex,50.914615,-2.22205,Wessex
Haresfield,Avon,51.7793,-2.2559899999999997,Avon
Harting,Sky Surfing,50.95948,-0.87007,Sky Surfing
Haughmond Hill,Long Mynd,52.719635,-2.687735,Long Mynd
Hawkswick,Dales,54.12898,-2.05297,Dales
Hay Bluff,Joint Services,52.02262,-3.1038750000000004,Joint Services
Heol Senni,SW Wales,51.8892,-3.58188,SW Wales
Herne Bay,Dover,51.375045,1.175235,Dover
Heron Pike,Cumbria,54.464789999999994,-2.99615,Cumbria
High And Over,Southern,50.79118,0.14232,Southern
High Cap,Northumbria,54.701319999999996,-2.526485,Northumbria
High Street,Cumbria,54.493725,-2.862045,Cumbria
High Wheeldon,Derbyshire,53.190084999999996,-1.850865,Derbyshire
Hill End Beach,SW Wales,51.580415,-4.287775,SW Wales
Hill Farm,Rutland,52.69155,0.81357,Rutland
Hill Of Noth,Aberdeen,57.35942,-2.816895,Aberdeen
Hogden Law,Northumbria,55.407675,-2.07423,Northumbria
Horden,North Yorks,54.76379,-1.29924,North Yorks
Hordon,North Yorks,54.791255,-1.311755,North Yorks
Hownam,Northumbria,55.48852,-2.329,Northumbria
Huish,Thames Valley,51.37337,-1.78157,Thames Valley
Humbleton Hill,Northumbria,55.54903,-2.05217,Northumbria
Hundred House,Joint Services,52.16492,-3.33418,Joint Services
Ill Bell,Cumbria,54.494695,-2.944195,Cumbria
Ingleborough,Dales,54.17053,-2.38332,Dales
Jenkin,Cumbria,54.63073,-3.120965,Cumbria
Johnny Barnes,Dales,54.231355,-2.5528500000000003,Dales
Kerloch,Aberdeen,56.98236,-2.503035,Aberdeen
Kettle Sings,Malvern,52.0769,-2.33928,Malvern
Kilnsey,Dales,54.1057,-2.04653,Dales
Kimmeridge,Wessex,50.61489,-2.104835,Wessex
King Tor,South Devon,50.619725,-3.823875,South Devon
Kings Seat,SMPC,56.481015,-3.24962,SMPC
Kintail,Highland,57.222515,-5.40846,Highland
Knitson,Wessex,50.62963,-1.9947300000000001,Wessex
Knock Hill,Aberdeen,57.58362,-2.77698,Aberdeen
Knock Of Formal,Aberdeen,56.67662,-3.2127,Aberdeen
Langdales,Cumbria,54.4554,-3.104655,Cumbria
Langholm,Northumbria,55.19375,-3.01533,Northumbria
Latrigg,Cumbria,54.6126,-3.1208,Cumbria
Lawley,Long Mynd,52.58052,-2.73953,Long Mynd
Leavesleys Hill,Long Mynd,52.50114,-3.03457,Long Mynd
Leckhampton,XClent,51.86505,-2.06652,XClent
Liddington,Thames Valley,51.51725,-1.70132,Thames Valley
Little London,Mid Wales,52.48875,-3.41212,Mid Wales
Little Mell Fell,Cumbria,54.606925000000004,-2.8909450000000003,Cumbria
Little Wyvis,Highland,57.64492,-4.63332,Highland
Llanbedr,SE Wales,51.90815,-3.122905,SE Wales
Llandewi Brefi,Mid Wales,52.16727,-3.971565,Mid Wales
Llandinam,Mid Wales,52.471895,-3.42457,Mid Wales
Llangollen,North Wales,52.95615,-3.13631,North Wales
Llangorse,SE Wales,51.93855,-3.2232,SE Wales
Llantysilio,North Wales,52.99828,-3.26452,North Wales
Loadpot Hill,Cumbria,54.55643,-2.84407,Cumbria
Lobden,Pennine,53.661275,-2.15541,Pennine
Loch Torridon,Highland,57.56567,-5.5958950000000005,Highland
Lochcraig Head,LLSC,55.452,-3.3145,LLSC
Lochindorb,Highland,57.40333,-3.69412,Highland
Lochlyock Hill,LLSC,55.587990000000005,-3.69897,LLSC
Long Knoll,Wessex,51.13749,-2.2908999999999997,Wessex
Long Mountain,Long Mynd,52.67568,-3.0631,Long Mynd
Long Mynd,Long Mynd,52.52245,-2.88137,Long Mynd
Long Mynd Black Knoll,Long Mynd,52.494585,-2.8956999999999997,Long Mynd
Longridge,Pennine,53.85948,-2.54372,Pennine
Longstone Edge,Derbyshire,53.254549999999995,-1.695635,Derbyshire
Lords Seat,Derbyshire,53.3481,-1.8218,Derbyshire
Lowther,LLSC,55.37818,-3.75755,LLSC
Lumsden Law,Northumbria,55.34366,-2.4351700000000003,Northumbria
Magic,SE Wales,51.888485,-3.14114,SE Wales
Maiden Castle,Condors,50.696799999999996,-2.468465,Condors
Mallerstang,Dales,54.42028500000001,-2.3094599999999996,Dales
Malvern,Malvern,52.07678,-2.33935,Malvern
Mam Tor,Derbyshire,53.34995,-1.80867,Derbyshire
Marske,North Yorks,54.595635,-1.0110549999999998,North Yorks
Mauld,Highland,57.40223,-4.66152,Highland
Meall A Bhuachaille,Highland,57.18303,-3.67267,Highland
Meall A Bhuiridh,SMPC,56.61175,-4.84418,SMPC
Meall A Chaorainn,SMPC,56.739475,-5.090165,SMPC
Meall An T-Seallaidh,SMPC,56.36672,-4.34837,SMPC
Meall Bhanbhaid,SMPC,56.863775000000004,-5.091255,SMPC
Meall Donn,Highland,57.25252,-4.36915,Highland
Meall Leacachain,Highland,57.75313,-4.9743,Highland
Meall Monachyle,SMPC,56.34988,-4.48517,SMPC
Meall Nan Bradan Leathan,Highland,57.70198,-4.51005,Highland
Melmerby Low Scar,Northumbria,54.73657,-2.57178,Northumbria
Mendips,Wessex,51.26302,-2.73075,Wessex
Menstrie,LLSC,56.15962,-3.84355,LLSC
Mercury,Sky Surfing,50.97413,-1.03855,Sky Surfing
Mere,Wessex,51.10858,-2.272205,Wessex
Merthyr,SW Wales,51.72333,-3.33597,SW Wales
Mhwh,Grupa 303,51.37272,-1.85657,Grupa 303
Mid Eildon,LLSC,55.58695,-2.70832,LLSC
Middle Of Nowhere,Highland,56.911,-4.318965,Highland
Middleark,Dales,54.39815,-2.3607,Dales
Milk Hill White Horse,Grupa 303,51.37282,-1.85684,Grupa 303
Milk Massif,Thames Valley,51.37321,-1.7441,Thames Valley
Millington,Cayley,53.95217,-0.72655,Cayley
Model Ridge,North Yorks,54.42238,-1.1927,North Yorks
Moel Accre,North Wales,53.0672,-3.24137,North Wales
Moel Berfedd,Snowdonia,53.08238,-4.0101,Snowdonia
Moel Eilio,Snowdonia,53.10893,-4.14007,Snowdonia
Moel Famau,North Wales,53.13865,-3.25977,North Wales
Molls Cleuch Dod,LLSC,55.445425,-3.35529,LLSC
Moneylaws,Northumbria,55.60686,-2.2055350000000002,Northumbria
Monksdown,Wessex,50.98638,-2.087075,Wessex
Moorfoots,LLSC,55.77353,-3.04622,LLSC
Morrone,Highland,56.98075,-3.42837,Highland
Moruisg,Highland,57.51735,-5.16415,Highland
Morven,Aberdeen,57.12432,-2.99882,Aberdeen
Mount Benger,LLSC,55.53187,-3.09345,LLSC
Mount Caburn,Southern,50.86133,0.050324999999999995,Southern
Much Marcle,Malvern,51.99117,-2.53972,Malvern
Murton Pike,Northumbria,54.60163,-2.41442,Northumbria
Mynydd Llysiau,SE Wales,51.9469,-3.158625,SE Wales
Mynydd Meio,SW Wales,51.586525,-3.280885,SW Wales
Myreton,LLSC,56.16015,-3.84343,LLSC
Na Cnapanan,Highland,56.96742,-4.5118,Highland
Nant,Snowdonia,52.96924,-4.4592849999999995,Snowdonia
Nant Y Moel,SW Wales,51.632525,-3.52589,SW Wales
Near Abington,LLSC,55.486374999999995,-3.6764900000000003,LLSC
Nevis Range,SMPC,56.84188,-4.97152,SMPC
Newburgh,LLSC,56.35788,-3.19452,LLSC
Newgale,SW Wales,51.83807,-5.112865,SW Wales
Newhaven,Southern,50.782,0.04792,Southern
Nont Sarahs,Derbyshire,53.61865,-1.97303,Derbyshire
North Luffenham,Rutland,52.63035,-0.60998,Rutland
Nr Broughton,LLSC,55.614850000000004,-3.39281,LLSC
Nr Dolgarrog,Snowdonia,53.17441,-3.87424,Snowdonia
Old Bewick,Northumbria,55.48752,-1.87987,Northumbria
Pandy,SE Wales,51.90795,-2.99456,SE Wales
Pandy Ridge,SE Wales,51.93762,-3.00817,SE Wales
Panorama,North Wales,52.98267,-3.13775,North Wales
Park Fell,Dales,54.18967,-2.35993,Dales
Parlick,Pennine,53.89987,-2.61796,Pennine
Parracombe,North Devon,51.17836,-3.87586,North Devon
Pen Dinas,Mid Wales,52.39909,-4.0893250000000005,Mid Wales
Pen Y Fan,SW Wales,51.88303,-3.44538,SW Wales
Pendle,Pennine,53.857325,-2.33822,Pennine
Pendle East,Pennine,53.871805,-2.2966499999999996,Pennine
Penmaen Bach,Snowdonia,53.28425,-3.87592,Snowdonia
Penycloddiau,North Wales,53.2048,-3.30875,North Wales
Penyghent,Dales,54.159015,-2.250465,Dales
Pinnacle Hill,Malvern,52.07676,-2.3391200000000003,Malvern
Pontlottyn,SW Wales,51.738675,-3.2819149999999997,SW Wales
Pressendye,Aberdeen,57.167715,-2.84776,Aberdeen
Primrose Valley,Cayley,54.19188,-0.2823,Cayley
Quinag,Highland,58.19839,-5.023595,Highland
Quiraing,Highland,57.6291,-6.289009999999999,Highland
Radar Masts,Northumbria,54.7572,-2.5746849999999997,Northumbria
Rebecca,Cumbria,54.19645,-3.1824250000000003,Cumbria
Red Pike,Cumbria,54.52747,-3.29862,Cumbria
Red Screes,Cumbria,54.46935,-2.93378,Cumbria
Reighton,Cayley,54.16498,-0.24596,Cayley
Rhiw Wen,SW Wales,51.855975,-3.848115,SW Wales
Ringstead,Wessex,50.640175,-2.34191,Wessex
Roaches,Derbyshire,53.169285,-2.003125,Derbyshire
Robinson,Cumbria,54.53732,-3.23605,Cumbria
Roel Gate,XClent,51.91705,-1.924425,XClent
Rough Knowe,LLSC,55.522009999999995,-2.99485,LLSC
Rushup,Derbyshire,53.34732,-1.82382,Derbyshire
Rutland Airsports,Rutland,52.630445,-0.605775,Rutland
Rybury,Grupa 303,51.37278,-1.88167,Grupa 303
Saddle Yoke,LLSC,55.38602,-3.34808,LLSC
Sandymouth,South Devon,50.85997,-4.55508,South Devon
Sarn,Long Mynd,52.50295,-3.14252,Long Mynd
Scales Fell,Cumbria,54.63858,-3.0256499999999997,Cumbria
Schiehallion,SMPC,56.666075,-4.076359999999999,SMPC
Seat Sandal,Cumbria,54.49046,-3.03585,Cumbria
Selsley,Avon,51.72742,-2.25043,Avon
Semer Water,Dales,54.288560000000004,-2.13954,Dales
Seven Sisters,SW Wales,51.7471,-3.70062,SW Wales
Sgor Gaoithe,Highland,57.27755,-3.53576,Highland
Sgurr An Airgid,Highland,57.237705,-5.39644,Highland
Sgurr An Fhuarail,Highland,57.16208,-5.201,Highland
Sgurr Finniosgaig,SMPC,56.842225,-4.971064999999999,SMPC
Sgurr Na Feartaig,Highland,57.467725,-5.246675,Highland
Sharpenhoe,Dunstable,51.9582,-0.44589,Dunstable
Shining Tor,Derbyshire,53.258625,-2.01091,Derbyshire
Simon Fell,Dales,54.16994,-2.369575,Dales
Skiddaw,Cumbria,54.63947,-3.13732,Cumbria
Skirrid,SE Wales,51.8549,-2.97482,SE Wales
Slaggyford,Northumbria,54.850975000000005,-2.515355,Northumbria
Slieve Gallion,Ulster,54.74684499999999,-6.73405,Ulster
Sma Glen,SMPC,56.46551,-3.81529,SMPC
Snowdon,Snowdonia,53.074725,-4.071575,Snowdonia
Sourton,South Devon,50.69002,-4.06627,South Devon
South Cerney,XClent,51.68687,-1.92145,XClent
Southbourne,Isle of Wight,50.7215,-1.8166,Isle of Wight
Souther Fell,Cumbria,54.652675,-2.998565,Cumbria
Sow Of Athol,SMPC,56.83914,-4.255375,SMPC
Sron A Gharbh Choire Bhig,SMPC,56.688050000000004,-5.39589,SMPC
St Bees,Cumbria,54.512705,-3.63922,Cumbria
St Cats,Isle of Wight,50.5964,-1.30578,Isle of Wight
St. Aldhelms,Wessex,50.59287,-2.05952,Wessex
St. Bees,Cumbria,54.489875,-3.61055,Cumbria
Stags Fell,Dales,54.3266,-2.19745,Dales
Stanage,Derbyshire,53.34632,-1.63178,Derbyshire
Standon Hill,South Devon,50.612875,-4.04571,South Devon
Stoodley Pike,Pennine,53.71378,-2.04317,Pennine
Strath Rusdale,Highland,57.768515,-4.37814,Highland
Strathyre,SMPC,56.3259,-4.29433,SMPC
Stronend,LLSC,56.077110000000005,-4.20669,LLSC
Struddick,South Devon,50.366,-4.40427,South Devon
Sugar Hill,Thames Valley,51.50662,-1.65892,Thames Valley
Sugar Loaf,SE Wales,51.84308,-3.05893,SE Wales
Suidhe Fhearghas,LLSC,55.660675,-5.19681,LLSC
Swallowcliffe,Wessex,51.03013,-2.03677,Wessex
Swarth Fell,Dales,54.36477,-2.37548,Dales
Swindale,Cumbria,54.544775,-3.0296950000000002,Cumbria
Swinside,Cumbria,54.608059999999995,-3.281725,Cumbria
Tailbridge,Dales,54.438585,-2.3042249999999997,Dales
Talybont,SW Wales,51.864189999999994,-3.35693,SW Wales
Tarmachan,SMPC,56.51268,-4.292434999999999,SMPC
Telegraph Hill,Wessex,50.84407,-2.5102,Wessex
Threlkeld Knotts,Cumbria,54.59718,-3.04247,Cumbria
Thundergay,SMPC,55.656580000000005,-5.3462,SMPC
Thurnham,Dover,51.294709999999995,0.588415,Dover
Tinto,LLSC,55.59112,-3.701085,LLSC
Tinto East,LLSC,55.60432,-3.65757,LLSC
Toad Scar,Dales,54.1746,-2.480905,Dales
Tops Of Fichell,Aberdeen,56.79968,-3.01902,Aberdeen
Treak Cliff,Derbyshire,53.34285,-1.79862,Derbyshire
Tremmaen,Joint Services,52.163375,-3.3408350000000002,Joint Services
Trentishoe,North Devon,51.21494,-3.96708,North Devon
Tresparret,South Devon,50.71204,-4.65161,South Devon
Triscombe,Condors,51.10595,-3.19767,Condors
Troutbeck,Cumbria,54.420885,-2.887085,Cumbria
Tudhope Hill,Northumbria,55.280345,-2.895935,Northumbria
Ubley,Gap,51.31175,-2.67549,Gap
Uffington,Thames Valley,51.57718,-1.567135,Thames Valley
Ullock,Cumbria,54.66175,-3.17945,Cumbria
Unknown,SE Wales,51.80427,-2.99565,SE Wales
Walla,Cumbria,54.58312,-3.1189150000000003,Cumbria
Warren,Dover,51.1016,1.22615,Dover
Wasdale Screes,Cumbria,54.417075,-3.3166399999999996,Cumbria
West Lomand,LLSC,56.24695,-3.30207,LLSC
Westbury,Gap,51.2626,-2.14746,Gap
Westward Ho!,North Devon,51.035975,-4.25735,North Devon
Wether Fell,Dales,54.27013,-2.20558,Dales
Weybourne,Rutland,52.948605,1.14494,Rutland
Whernside,Dales,54.207335,-2.41976,Dales
White Corries,SMPC,56.62787,-4.84022,SMPC
White Horse,Condors,50.6586,-2.40473,Condors
White Mountain,Ulster,54.86322,-6.85285,Ulster
White Pike,Cumbria,54.47383,-3.090985,Cumbria
Whiteless Pike,Cumbria,54.55924,-3.27151,Cumbria
Whitesheet,Wessex,51.01293,-2.09212,Wessex
Whiteside,Cumbria,54.5864,-3.2869099999999998,Cumbria
Whitestones,Dales,54.3809,-2.56474,Dales
Whitewool,Sky Surfing,50.97898,-1.075675,Sky Surfing
Widgery Cross,South Devon,50.65193,-4.06855,South Devon
Windbank,Dales,54.129239999999996,-2.05327,Dales
Winter Hill,Pennine,53.62974,-2.5135449999999997,Pennine
Wolf Crags,Cumbria,54.5922,-2.986195,Cumbria
Woolacombe,North Devon,51.15888,-4.20607,North Devon
Worcester Beacon,Malvern,52.10445,-2.3394,Malvern
Wrekin,Long Mynd,52.66943,-2.55195,Long Mynd
Wrynose,Cumbria,54.41832,-3.1118,Cumbria
Xclent,XClent,51.914550000000006,-1.92412,XClent
Yoke,Cumbria,54.450355,-2.86792,Cumbria
